[{"h_id":"1","name":"Lilavai","regno":"007","mobile":"2837","email":"lila@","password":"123123","address":"pata nahi","lat":"19.0607","lon":"72.8362"},{"h_id":"2","name":"china","regno":"007","mobile":"2837","email":"lila@","password":"123123","address":"pata nahi","lat":"18","lon":"77"},{"h_id":"3","name":"Bandra Dawakhana","regno":"007","mobile":"2837","email":"lila@","password":"123123","address":"pata nahi","lat":"19","lon":"79"},{"h_id":"4","name":"Lotus Multi Speciality Hospital","regno":"w","mobile":"3223","email":"ewer","password":"sdds","address":"sds","lat":"19.1531","lon":"72.9412"},{"h_id":"5","name":"DR BHATIAS HOSPITAL BHANDUP","regno":"fgdf","mobile":"546456","email":"dfgdg","password":"ffgh","address":"ee","lat":"19.1523","lon":"72.94"},{"h_id":"6","name":"Chandan Charitable Hospital","regno":"edfgd","mobile":"56456","email":"sdfg","password":"gdsfgdf","address":"dsfgdfg","lat":"19.1514","lon":"72.9396"},{"h_id":"7","name":"Dr. Shree Badwaik Hospital","regno":"fdgdg","mobile":"45646","email":"asdad","password":"asdad","address":"sdfsf","lat":"19.1504","lon":"72.9381"},{"h_id":"8","name":"Diamond Maternity Hospital","regno":"dfgd","mobile":"356","email":"fdsgg","password":"fghdfg","address":"sgdhsdg","lat":"19.1496","lon":"72.9422"},{"h_id":"9","name":"Dr. Malwankars Romeen Nursing Home","regno":"sefdg","mobile":"3456","email":"dfsfgsfg","password":"sdfgd","address":"sedfeg","lat":"19.1512","lon":"72.9337"},{"h_id":"10","name":"Vardhaman Hospital & ICCU","regno":"sdfg","mobile":"3456","email":"sdffg","password":"sdfg","address":"sdfg","lat":"19.1509","lon":"72.9341"},{"h_id":"11","name":"Trivedi Hospital","regno":"sdfg","mobile":"3456","email":"sdfg","password":"asdf","address":"asdfg","lat":"19.1474","lon":"72.936"},{"h_id":"12","name":"Srushti Orthopaedic Hospital","regno":"fdsg","mobile":"45","email":"sdf","password":"sdf","address":"sdfg","lat":"19.1468","lon":"72.9348"}, {"h_id":"13","name":"Lilavati Hospital And Research Centre","regno":"sdfg","mobile":"3456","email":"sdfg","password":"asdf","address":"asdfg","lat":"19.0511","lon":"72.8292"},{"h_id":"14","name":"Sanjeevan For Perfect Eyesight","regno":"sdfg","mobile":"3456","email":"sdfg","password":"asdf","address":"asdfg","lat":"19.0503","lon":"72.8891"},{"h_id":"15","name":"Chandra Maternity Hospital","regno":"sdfg","mobile":"3456","email":"sdfg","password":"asdf","address":"asdfg","lat":"19.0503","lon":" 72.8891"},  {"h_id":"16","name":"Inlaks General Hospital","regno":"sdfg","mobile":"3456","email":"sdfg","password":"asdf","address":"asdfg","lat":"19.0461","lon":"72.8944"},  {"h_id":"17","name":"Parmale Clinics","regno":"sdfg","mobile":"3456","email":"sdfg","password":"asdf","address":"asdfg","lat":"19.0477","lon":" 72.8924"},  {"h_id":"18","name":"Sitla Hospital","regno":"sdfg","mobile":"3456","email":"sdfg","password":"asdf","address":"asdfg","lat":" 19.0527","lon":"72.8912"}]